[
    {
      "id": 0,
      "lat": -33.8934219,
      "lng": 151.20404600000006,
      "location": "Sydney",
      "goodYield": true,
      "yieldData": [
        { "cat": "PPM", "value": 89.0 },
        { "cat": "COQ", "value": 87.1 },
        { "cat": "Scrap", "value": 0.4 },
        { "cat": "Sigma", "value": 57 },
        { "cat": "FPY", "value": 65 }
      ]
    },
    {
      "id": 1,
      "lat": 1.28304,
      "lng": 103.85199319999992,
      "location": "Singapore",
      "goodYield": false,
      "yieldData": [
        { "cat": "PPM", "value": 89.0 },
        { "cat": "COQ", "value": 87.1 },
        { "cat": "Scrap", "value": 0.4 },
        { "cat": "Sigma", "value": 57 },
        { "cat": "FPY", "value": 65 }
      ]
    },
    {
      "id": 2,
      "lat": 41.8336479,
      "lng": -87.8720464,
      "location": "Chicago",
      "goodYield": false,
      "yieldData": [
        { "cat": "PPM", "value": 89.0 },
        { "cat": "COQ", "value": 87.1 },
        { "cat": "Scrap", "value": 0.4 },
        { "cat": "Sigma", "value": 57 },
        { "cat": "FPY", "value": 65 }
      ]
    },
    {
      "id": 3,
      "lat": -1.2890117,
      "lng": 36.793729600000006,
      "location": "Nairobi",
      "goodYield": true,
      "yieldData": [
        { "cat": "PPM", "value": 89.0 },
        { "cat": "COQ", "value": 87.1 },
        { "cat": "Scrap", "value": 0.4 },
        { "cat": "Sigma", "value": 57 },
        { "cat": "FPY", "value": 65 }
      ]
    },
    {
      "id": 4,
      "lat": 51.5014767,
      "lng": -0.0713608999999451,
      "location": "London",
      "goodYield": true,
      "yieldData": [
        { "cat": "PPM", "value": 89.0 },
        { "cat": "COQ", "value": 87.1 },
        { "cat": "Scrap", "value": 0.4 },
        { "cat": "Sigma", "value": 57 },
        { "cat": "FPY", "value": 65 }
      ]
    },
    {
      "id": 5,
      "lat": 51.9107013,
      "lng": 4.547834200000011,
      "location": "Rotterdam",
      "goodYield": false,
      "yieldData": [
        { "cat": "PPM", "value": 89.0 },
        { "cat": "COQ", "value": 87.1 },
        { "cat": "Scrap", "value": 0.4 },
        { "cat": "Sigma", "value": 57 },
        { "cat": "FPY", "value": 65 }
      ]
    },
    {
      "id": 6,
      "lat": 12.9657659,
      "lng": 77.5998538,
      "location": "Bangalore",
      "goodYield": false,
      "yieldData": [
        { "cat": "PPM", "value": 89.0 },
        { "cat": "COQ", "value": 87.1 },
        { "cat": "Scrap", "value": 0.4 },
        { "cat": "Sigma", "value": 57 },
        { "cat": "FPY", "value": 65 }
      ]
    },
    {
      "id": 7,
      "lat": 31.2240453,
      "lng": 121.1965697,
      "location": "Shanghai",
      "goodYield": true,
      "yieldData": [
        { "cat": "PPM", "value": 89.0 },
        { "cat": "COQ", "value": 87.1 },
        { "cat": "Scrap", "value": 0.4 },
        { "cat": "Sigma", "value": 57 },
        { "cat": "FPY", "value": 65 }
      ]
    },
    {
      "id": 8,
      "lat": 48.1548895,
      "lng": 11.4717964,
      "location": "Munich",
      "goodYield": true,
      "yieldData": [
        { "cat": "PPM", "value": 89.0 },
        { "cat": "COQ", "value": 87.1 },
        { "cat": "Scrap", "value": 0.4 },
        { "cat": "Sigma", "value": 57 },
        { "cat": "FPY", "value": 65 }
      ]
    },
    {
      "id": 9,
      "lat": 39.7642548,
      "lng": -104.9951939,
      "location": "Denver",
      "goodYield": true,
      "yieldData": [
        { "cat": "PPM", "value": 89.0 },
        { "cat": "COQ", "value": 87.1 },
        { "cat": "Scrap", "value": 0.4 },
        { "cat": "Sigma", "value": 57 },
        { "cat": "FPY", "value": 65 }
      ]
    },
    {
      "id": 10,
      "lat": 34.0201613,
      "lng": -118.6919144,
      "location": "Los Angeles",
      "goodYield": true,
      "yieldData": [
        { "cat": "PPM", "value": 89.0 },
        { "cat": "COQ", "value": 87.1 },
        { "cat": "Scrap", "value": 0.4 },
        { "cat": "Sigma", "value": 57 },
        { "cat": "FPY", "value": 65 }
      ]
    },
    {
      "id": 11,
      "lat": 43.6567919,
      "lng": -79.460932,
      "location": "Toronto",
      "goodYield": false,
      "yieldData": [
        { "cat": "PPM", "value": 32.0 },
        { "cat": "COQ", "value": 50.1 },
        { "cat": "Scrap", "value": 80.4 },
        { "cat": "Sigma", "value": 78 },
        { "cat": "FPY", "value": 24 }
      ]
    }
]
